{
  "type": "FeatureCollection",
  "name": "MAJOR_AIRPORTS",
  "crs": {
    "type": "name",
    "properties": {
      "name": "urn:ogc:def:crs:OGC:1.3:CRS84"
    }
  },
  "features": [
    {
      "type": "Feature",
      "properties": { "Name": "Avalon Airport" },
      "geometry": {
        "type": "Point",
        "coordinates": [144.472492, -38.038817]
      }
    },
    {
      "type": "Feature",
      "properties": { "Name": "Melbourne International Airport" },
      "geometry": {
        "type": "Point",
        "coordinates": [144.842027, -37.665634]
      }
    },
    {
      "type": "Feature",
      "properties": { "Name": "Hobart International Airport" },
      "geometry": { "type": "Point", "coordinates": [147.51001, -42.83667] }
    },
    {
      "type": "Feature",
      "properties": { "Name": "Launceston Airport" },
      "geometry": { "type": "Point", "coordinates": [147.21501, -41.545] }
    },
    {
      "type": "Feature",
      "properties": { "Name": "Perth Airport" },
      "geometry": {
        "type": "Point",
        "coordinates": [115.950917, -31.933817]
      }
    },
    {
      "type": "Feature",
      "properties": { "Name": "Darwin International Airport" },
      "geometry": { "type": "Point", "coordinates": [130.8672, -12.400967] }
    },
    {
      "type": "Feature",
      "properties": { "Name": "Adelaide Airport" },
      "geometry": {
        "type": "Point",
        "coordinates": [138.517433, -34.934117]
      }
    },
    {
      "type": "Feature",
      "properties": { "Name": "Sydney International Airport" },
      "geometry": {
        "type": "Point",
        "coordinates": [151.167233, -33.934183]
      }
    },
    {
      "type": "Feature",
      "properties": { "Name": "Newcastle Airport" },
      "geometry": {
        "type": "Point",
        "coordinates": [151.839992, -32.804194]
      }
    },
    {
      "type": "Feature",
      "properties": { "Name": "Cairns Airport" },
      "geometry": {
        "type": "Point",
        "coordinates": [145.754026, -16.876268]
      }
    },
    {
      "type": "Feature",
      "properties": { "Name": "Brisbane Airport" },
      "geometry": { "type": "Point", "coordinates": [153.11765, -27.397984] }
    },
    {
      "type": "Feature",
      "properties": {
        "marker-color": "#7e7e7e",
        "marker-size": "medium",
        "marker-symbol": "",
        "Name": "Gold Coast Airport"
      },
      "geometry": {
        "type": "Point",
        "coordinates": [153.513292, -28.166156]
      }
    },
    {
      "type": "Feature",
      "properties": { "Name": "Charlton-Wellcamp" },
      "geometry": { "type": "Point", "coordinates": [151.795, -27.55861] }
    },
    {
      "type": "Feature",
      "properties": { "Name": "Canberra International Airport" },
      "geometry": { "type": "Point", "coordinates": [149.19221, -35.304872] }
    }
  ]
}
