{
  "type": "FeatureCollection",
  "name": "MAJOR_SEAPORTS",
  "crs": {
    "type": "name",
    "properties": {
      "name": "urn:ogc:def:crs:OGC:1.3:CRS84"
    }
  },
  "features": [
    {
      "type": "Feature",
      "properties": {
        "name": "Port of Hastings"
      },
      "geometry": {
        "type": "Point",
        "coordinates": [145.2218, -38.3734]
      }
    },
    {
      "type": "Feature",
      "properties": {
        "name": "Geelong Port"
      },
      "geometry": {
        "type": "Point",
        "coordinates": [144.359491, -38.108022]
      }
    },
    {
      "type": "Feature",
      "properties": {
        "name": "Port of Melbourne"
      },
      "geometry": {
        "type": "Point",
        "coordinates": [144.90884, -37.836015]
      }
    },
    {
      "type": "Feature",
      "properties": {
        "name": "Port of Portland"
      },
      "geometry": {
        "type": "Point",
        "coordinates": [141.609815, -38.357227]
      }
    },
    {
      "type": "Feature",
      "properties": {
        "name": "Port of Burnie"
      },
      "geometry": {
        "type": "Point",
        "coordinates": [145.909899, -41.055104]
      }
    },
    {
      "type": "Feature",
      "properties": {
        "name": "Port of Hobart"
      },
      "geometry": {
        "type": "Point",
        "coordinates": [147.338864, -42.881833]
      }
    },
    {
      "type": "Feature",
      "properties": {
        "name": "Port of Devonport"
      },
      "geometry": {
        "type": "Point",
        "coordinates": [146.362133, -41.180689]
      }
    },
    {
      "type": "Feature",
      "properties": {
        "name": "Port of Ashburton"
      },
      "geometry": {
        "type": "Point",
        "coordinates": [115.009186, -21.6856]
      }
    },
    {
      "type": "Feature",
      "properties": {
        "name": "Port of Launceston (Bell Bay)"
      },
      "geometry": {
        "type": "Point",
        "coordinates": [147.13285, -41.432803]
      }
    },
    {
      "type": "Feature",
      "properties": {
        "name": "Esperance Port"
      },
      "geometry": {
        "type": "Point",
        "coordinates": [121.903662, -33.872006]
      }
    },
    {
      "type": "Feature",
      "properties": {
        "name": "Fremantle Port"
      },
      "geometry": {
        "type": "Point",
        "coordinates": [115.73528, -32.052568]
      }
    },
    {
      "type": "Feature",
      "properties": {
        "name": "Barrow Island Port"
      },
      "geometry": {
        "type": "Point",
        "coordinates": [115.456727, -20.790541]
      }
    },
    {
      "type": "Feature",
      "properties": {
        "name": "Port of Derby"
      },
      "geometry": {
        "type": "Point",
        "coordinates": [123.630647, -17.305552]
      }
    },
    {
      "type": "Feature",
      "properties": {
        "name": "Port of Koolan Island"
      },
      "geometry": {
        "type": "Point",
        "coordinates": [123.758917, -16.134123]
      }
    },
    {
      "type": "Feature",
      "properties": {
        "name": "Onslow Port"
      },
      "geometry": {
        "type": "Point",
        "coordinates": [115.008545, -21.685156]
      }
    },
    {
      "type": "Feature",
      "properties": {
        "name": "Port Thevenard Island"
      },
      "geometry": {
        "type": "Point",
        "coordinates": [115.004173, -21.456731]
      }
    },
    {
      "type": "Feature",
      "properties": {
        "name": "Port of Airlie Island"
      },
      "geometry": {
        "type": "Point",
        "coordinates": [148.724746, -20.272971]
      }
    },
    {
      "type": "Feature",
      "properties": {
        "name": "Port Varanus Island"
      },
      "geometry": {
        "type": "Point",
        "coordinates": [144.472492, -38.038817, 0]
      }
    },
    {
      "type": "Feature",
      "properties": {
        "name": "Port Walcott"
      },
      "geometry": {
        "type": "Point",
        "coordinates": [144.472492, -38.038817, 0]
      }
    },
    {
      "type": "Feature",
      "properties": {
        "name": "Cape Preston Port"
      },
      "geometry": {
        "type": "Point",
        "coordinates": [144.472492, -38.038817, 0]
      }
    },
    {
      "type": "Feature",
      "properties": {
        "name": "Port of Cockatoo Island"
      },
      "geometry": {
        "type": "Point",
        "coordinates": [144.472492, -38.038817, 0]
      }
    },
    {
      "type": "Feature",
      "properties": {
        "name": "Wyndham Port"
      },
      "geometry": {
        "type": "Point",
        "coordinates": [144.472492, -38.038817, 0]
      }
    },
    {
      "type": "Feature",
      "properties": {
        "name": "Darwin Port"
      },
      "geometry": {
        "type": "Point",
        "coordinates": [144.472492, -38.038817, 0]
      }
    },
    {
      "type": "Feature",
      "properties": {
        "name": "Port Kwinana"
      },
      "geometry": {
        "type": "Point",
        "coordinates": [144.472492, -38.038817, 0]
      }
    },
    {
      "type": "Feature",
      "properties": {
        "name": "Port Bonython"
      },
      "geometry": {
        "type": "Point",
        "coordinates": [144.472492, -38.038817, 0]
      }
    },
    {
      "type": "Feature",
      "properties": {
        "name": "Port Lincoln"
      },
      "geometry": {
        "type": "Point",
        "coordinates": [144.472492, -38.038817, 0]
      }
    },
    {
      "type": "Feature",
      "properties": {
        "name": "Port of Whyalla"
      },
      "geometry": {
        "type": "Point",
        "coordinates": [144.472492, -38.038817, 0]
      }
    },
    {
      "type": "Feature",
      "properties": {
        "name": "Port of Thevenard"
      },
      "geometry": {
        "type": "Point",
        "coordinates": [144.472492, -38.038817, 0]
      }
    },
    {
      "type": "Feature",
      "properties": {
        "name": "Port Adelaide"
      },
      "geometry": {
        "type": "Point",
        "coordinates": [144.472492, -38.038817, 0]
      }
    },
    {
      "type": "Feature",
      "properties": {
        "name": "Port Botany"
      },
      "geometry": {
        "type": "Point",
        "coordinates": [151.218002, 33.976002, 0]
      }
    },
    {
      "type": "Feature",
      "properties": {
        "name": "Port Kembla"
      },
      "geometry": {
        "type": "Point",
        "coordinates": [144.472492, -38.038817, 0]
      }
    },
    {
      "type": "Feature",
      "properties": {
        "name": "Port of Newcastle"
      },
      "geometry": {
        "type": "Point",
        "coordinates": [144.472492, -38.038817, 0]
      }
    },
    {
      "type": "Feature",
      "properties": {
        "name": "Abbot Point Port"
      },
      "geometry": {
        "type": "Point",
        "coordinates": [144.472492, -38.038817, 0]
      }
    },
    {
      "type": "Feature",
      "properties": {
        "name": "Port of Hay Point And Dalrymple Bay"
      },
      "geometry": {
        "type": "Point",
        "coordinates": [144.472492, -38.038817, 0]
      }
    },
    {
      "type": "Feature",
      "properties": {
        "name": "Port of Gladstone"
      },
      "geometry": {
        "type": "Point",
        "coordinates": [144.472492, -38.038817, 0]
      }
    },
    {
      "type": "Feature",
      "properties": {
        "name": "Mackay Port"
      },
      "geometry": {
        "type": "Point",
        "coordinates": [144.472492, -38.038817, 0]
      }
    },
    {
      "type": "Feature",
      "properties": {
        "name": "Port of Townsville"
      },
      "geometry": {
        "type": "Point",
        "coordinates": [144.472492, -38.038817, 0]
      }
    },
    {
      "type": "Feature",
      "properties": {
        "name": "Port of Brisbane"
      },
      "geometry": {
        "type": "Point",
        "coordinates": [144.472492, -38.038817, 0]
      }
    },
    {
      "type": "Feature",
      "properties": {
        "name": "Port of Broome"
      },
      "geometry": {
        "type": "Point",
        "coordinates": [144.472492, -38.038817, 0]
      }
    },
    {
      "type": "Feature",
      "properties": {
        "name": "Port Hedland"
      },
      "geometry": {
        "type": "Point",
        "coordinates": [144.472492, -38.038817, 0]
      }
    },
    {
      "type": "Feature",
      "properties": {
        "name": "Port of Dampier"
      },
      "geometry": {
        "type": "Point",
        "coordinates": [144.472492, -38.038817, 0]
      }
    },
    {
      "type": "Feature",
      "properties": {
        "name": "Port of Geraldton"
      },
      "geometry": {
        "type": "Point",
        "coordinates": [144.472492, -38.038817, 0]
      }
    },
    {
      "type": "Feature",
      "properties": {
        "name": "Port of Bunbury"
      },
      "geometry": {
        "type": "Point",
        "coordinates": [144.472492, -38.038817, 0]
      }
    },
    {
      "type": "Feature",
      "properties": {
        "name": "Albany Port"
      },
      "geometry": {
        "type": "Point",
        "coordinates": [144.472492, -38.038817, 0]
      }
    }
  ]
}
