{
  "type": "FeatureCollection",
  "name": "MAJOR_SEAPORTS",
  "crs": {
    "type": "name",
    "properties": {
      "name": "urn:ogc:def:crs:OGC:1.3:CRS84"
    }
  },
  "features": [
    {
      "type": "Feature",
      "properties": {
        "name": "Port of Hastings"
      },
      "geometry": {
        "type": "Point",
        "coordinates": [145.2218, -38.3734]
      }
    },
    {
      "type": "Feature",
      "properties": {
        "name": "Geelong Port"
      },
      "geometry": {
        "type": "Point",
        "coordinates": [144.359491, -38.108022]
      }
    },
    {
      "type": "Feature",
      "properties": {
        "name": "Port of Melbourne"
      },
      "geometry": {
        "type": "Point",
        "coordinates": [144.90884, -37.836015]
      }
    },
    {
      "type": "Feature",
      "properties": {
        "name": "Port of Portland"
      },
      "geometry": {
        "type": "Point",
        "coordinates": [141.609815, -38.357227]
      }
    },
    {
      "type": "Feature",
      "properties": {
        "name": "Port of Burnie"
      },
      "geometry": {
        "type": "Point",
        "coordinates": [145.909899, -41.055104]
      }
    },
    {
      "type": "Feature",
      "properties": {
        "name": "Port of Hobart"
      },
      "geometry": {
        "type": "Point",
        "coordinates": [147.338864, -42.881833]
      }
    },
    {
      "type": "Feature",
      "properties": {
        "name": "Port of Devonport"
      },
      "geometry": {
        "type": "Point",
        "coordinates": [146.362133, -41.180689]
      }
    },
    {
      "type": "Feature",
      "properties": {
        "name": "Port of Ashburton"
      },
      "geometry": {
        "type": "Point",
        "coordinates": [115.009186, -21.6856]
      }
    },
    {
      "type": "Feature",
      "properties": {
        "name": "Port of Launceston (Bell Bay)"
      },
      "geometry": {
        "type": "Point",
        "coordinates": [147.13285, -41.432803]
      }
    },
    {
      "type": "Feature",
      "properties": {
        "name": "Esperance Port"
      },
      "geometry": {
        "type": "Point",
        "coordinates": [121.903662, -33.872006]
      }
    },
    {
      "type": "Feature",
      "properties": {
        "name": "Fremantle Port"
      },
      "geometry": {
        "type": "Point",
        "coordinates": [115.73528, -32.052568]
      }
    },
    {
      "type": "Feature",
      "properties": {
        "name": "Barrow Island Port"
      },
      "geometry": {
        "type": "Point",
        "coordinates": [115.456727, -20.790541]
      }
    },
    {
      "type": "Feature",
      "properties": {
        "name": "Port of Derby"
      },
      "geometry": {
        "type": "Point",
        "coordinates": [123.630647, -17.305552]
      }
    },
    {
      "type": "Feature",
      "properties": {
        "name": "Port of Koolan Island"
      },
      "geometry": {
        "type": "Point",
        "coordinates": [123.758917, -16.134123]
      }
    },
    {
      "type": "Feature",
      "properties": {
        "name": "Onslow Port"
      },
      "geometry": {
        "type": "Point",
        "coordinates": [115.008545, -21.685156]
      }
    },
    {
      "type": "Feature",
      "properties": {
        "name": "Port Thevenard Island"
      },
      "geometry": {
        "type": "Point",
        "coordinates": [115.004173, -21.456731]
      }
    },
    {
      "type": "Feature",
      "properties": {
        "name": "Port of Airlie Island"
      },
      "geometry": {
        "type": "Point",
        "coordinates": [148.724746, -20.272971]
      }
    },
    {
      "type": "Feature",
      "properties": {
        "name": "Port Varanus Island"
      },
      "geometry": {
        "type": "Point",
        "coordinates": [115.578587, -20.652554]
      }
    },
    {
      "type": "Feature",
      "properties": {
        "name": "Port Walcott"
      },
      "geometry": {
        "type": "Point",
        "coordinates": [117.170438, -20.600586]
      }
    },
    {
      "type": "Feature",
      "properties": {
        "name": "Cape Preston Port"
      },
      "geometry": {
        "type": "Point",
        "coordinates": [116.203787, -20.847357]
      }
    },
    {
      "type": "Feature",
      "properties": {
        "name": "Port of Cockatoo Island"
      },
      "geometry": {
        "type": "Point",
        "coordinates": [151.170487, -33.848817]
      }
    },
    {
      "type": "Feature",
      "properties": {
        "name": "Wyndham Port"
      },
      "geometry": {
        "type": "Point",
        "coordinates": [144.707017, -37.965801]
      }
    },
    {
      "type": "Feature",
      "properties": {
        "name": "Darwin Port"
      },
      "geometry": {
        "type": "Point",
        "coordinates": [130.849197, -12.459141]
      }
    },
    {
      "type": "Feature",
      "properties": {
        "name": "Port Kwinana"
      },
      "geometry": {
        "type": "Point",
        "coordinates": [144.472492, -38.038817]
      }
    },
    {
      "type": "Feature",
      "properties": {
        "name": "Port Bonython"
      },
      "geometry": {
        "type": "Point",
        "coordinates": [137.763919, -32.990796]
      }
    },
    {
      "type": "Feature",
      "properties": {
        "name": "Port Lincoln"
      },
      "geometry": {
        "type": "Point",
        "coordinates": [135.867775, -34.721997]
      }
    },
    {
      "type": "Feature",
      "properties": {
        "name": "Port of Whyalla"
      },
      "geometry": {
        "type": "Point",
        "coordinates": [137.593817, -33.033179]
      }
    },
    {
      "type": "Feature",
      "properties": {
        "name": "Port of Thevenard"
      },
      "geometry": {
        "type": "Point",
        "coordinates": [133.648285, -32.149327]
      }
    },
    {
      "type": "Feature",
      "properties": {
        "name": "Port Adelaide"
      },
      "geometry": {
        "type": "Point",
        "coordinates": [138.503, -34.846]
      }
    },
    {
      "type": "Feature",
      "properties": {
        "name": "Port Botany"
      },
      "geometry": {
        "type": "Point",
        "coordinates": [151.218, -33.976]
      }
    },
    {
      "type": "Feature",
      "properties": {
        "name": "Port Kembla"
      },
      "geometry": {
        "type": "Point",
        "coordinates": [150.888643, -34.46011]
      }
    },
    {
      "type": "Feature",
      "properties": {
        "name": "Port of Newcastle"
      },
      "geometry": {
        "type": "Point",
        "coordinates": [151.775644, -32.925949]
      }
    },
    {
      "type": "Feature",
      "properties": {
        "name": "Abbot Point Port"
      },
      "geometry": {
        "type": "Point",
        "coordinates": [148.08475, -19.899421]
      }
    },
    {
      "type": "Feature",
      "properties": {
        "name": "Port of Hay Point And Dalrymple Bay"
      },
      "geometry": {
        "type": "Point",
        "coordinates": [149.285517, -21.280726]
      }
    },
    {
      "type": "Feature",
      "properties": {
        "name": "Port of Gladstone"
      },
      "geometry": {
        "type": "Point",
        "coordinates": [151.270687, -23.839978]
      }
    },
    {
      "type": "Feature",
      "properties": {
        "name": "Mackay Port"
      },
      "geometry": {
        "type": "Point",
        "coordinates": [149.222291, -21.106251]
      }
    },
    {
      "type": "Feature",
      "properties": {
        "name": "Port of Townsville"
      },
      "geometry": {
        "type": "Point",
        "coordinates": [146.833424, -19.252831]
      }
    },
    {
      "type": "Feature",
      "properties": {
        "name": "Port of Brisbane"
      },
      "geometry": {
        "type": "Point",
        "coordinates": [153.16996, -27.377788]
      }
    },
    {
      "type": "Feature",
      "properties": {
        "name": "Port of Broome"
      },
      "geometry": {
        "type": "Point",
        "coordinates": [122.206912, -18.001384]
      }
    },
    {
      "type": "Feature",
      "properties": {
        "name": "Port -18.001384"
      },
      "geometry": {
        "type": "Point",
        "coordinates": [118.581547, -20.318751]
      }
    },
    {
      "type": "Feature",
      "properties": {
        "name": "Port of Dampier"
      },
      "geometry": {
        "type": "Point",
        "coordinates": [116.751344, -20.617809]
      }
    },
    {
      "type": "Feature",
      "properties": {
        "name": "Port of Geraldton"
      },
      "geometry": {
        "type": "Point",
        "coordinates": [114.600896, -28.776624]
      }
    },
    {
      "type": "Feature",
      "properties": {
        "name": "Port of Bunbury"
      },
      "geometry": {
        "type": "Point",
        "coordinates": [115.639597, -33.310633]
      }
    },
    {
      "type": "Feature",
      "properties": {
        "name": "Albany Port"
      },
      "geometry": {
        "type": "Point",
        "coordinates": [117.893713, -35.033497]
      }
    }
  ]
}
